city,lat,lng,Max_Temp,Humidity,Cloudiness,Wind Speed,Country,date
Faanui,-16.4833,-151.75,27.3,75,37,6.26,PF,1619037877
Hithadhoo,-0.6,73.0833,27.99,68,23,2.42,MV,1619037877
Rosita,13.9268,-84.4032,33.55,35,88,3.45,NI,1619037877
Hasaki,35.7333,140.8333,8.0,93,20,1.03,JP,1619037878
Cape Town,-33.9258,18.4232,19.0,77,0,3.6,ZA,1619038277
Rikitea,-23.1203,-134.9692,25.7,71,15,5.23,PF,1619037878
Ushuaia,-54.8,-68.3,10.0,50,0,0.6,AR,1619037878
Grand Island,40.925,-98.342,8.0,31,90,6.69,US,1619037798
Mar del Plata,-38.0023,-57.5575,20.56,88,40,9.77,AR,1619037879
Tuktoyaktuk,69.4541,-133.0374,-12.0,79,90,10.29,CA,1619037879
Bluff,-46.6,168.3333,8.89,98,98,0.45,NZ,1619037879
Rocha,-34.4833,-54.3333,19.3,67,9,6.65,UY,1619037880
St. George's,12.0564,-61.7485,29.0,65,20,10.29,GD,1619037880
Klaksvík,62.2266,-6.589,4.0,93,40,3.6,FO,1619037880
Chiredzi,-21.05,31.6667,17.16,75,0,1.33,ZW,1619037880
Jamestown,42.097,-79.2353,1.11,80,90,3.6,US,1619037729
Arraial do Cabo,-22.9661,-42.0278,22.0,94,40,4.63,BR,1619037881
Esperance,-33.8667,121.9,14.0,94,90,1.03,AU,1619037881
Busselton,-33.65,115.3333,12.22,96,100,4.84,AU,1619037881
Boa Vista,2.8197,-60.6733,34.0,38,40,5.14,BR,1619037881
Saint George,37.1041,-113.5841,26.11,5,1,10.8,US,1619037882
Las Palmas,28.4204,-14.0131,20.0,68,20,7.72,ES,1619037882
Tuatapere,-46.1333,167.6833,8.89,98,92,0.45,NZ,1619037882
East London,-33.0153,27.9116,20.3,83,75,0.92,ZA,1619037883
Viesca,25.35,-102.8,31.0,11,1,2.57,MX,1619037883
Provincia di Ancona,43.55,13.1667,12.78,66,75,1.03,IT,1619037883
Puerto Madero,14.7208,-92.4215,33.0,52,40,7.72,MX,1619037883
Hermanus,-34.4187,19.2345,18.33,85,22,3.13,ZA,1619037884
Vaini,-21.2,-175.2,26.0,89,40,2.06,TO,1619037884
Cherskiy,68.75,161.3,-0.9,70,100,9.18,RU,1619037884
Upernavik,72.7868,-56.1549,-9.07,76,100,3.02,GL,1619037884
Benguela,-12.5763,13.4055,26.88,86,23,1.62,AO,1619037886
Hong Kong,22.2855,114.1577,22.78,82,0,2.91,HK,1619037624
Mahébourg,-20.4081,57.7,25.0,94,40,3.09,MU,1619037886
Atherton,53.5237,-2.4935,9.44,54,42,1.79,GB,1619037734
Yarmouth,41.7057,-70.2286,15.0,77,90,5.66,US,1619037886
Ugoofaaru,5.6667,73.0,28.23,72,10,3.38,MV,1619037886
Qaqortoq,60.7167,-46.0333,9.0,29,75,13.38,GL,1619037887
Skibbereen,51.55,-9.2667,9.0,87,40,4.63,IE,1619037887
Velagići,44.5572,16.7317,13.0,54,0,1.54,BA,1619037887
Albany,42.6001,-73.9662,2.78,67,100,3.13,US,1619037733
Mataura,-46.1927,168.8643,8.89,98,90,0.45,NZ,1619037887
Mogadishu,2.0371,45.3438,28.56,75,100,5.58,SO,1619037888
Madimba,-10.4,40.3333,24.0,94,20,7.2,TZ,1619037888
Nishifukuma,33.7667,130.4667,15.0,67,97,1.03,JP,1619037888
Porgera,-5.4667,143.2,5.89,91,98,1.23,PG,1619037888
Severo-Kuril'sk,50.6789,156.125,1.91,92,100,3.16,RU,1619037889
Goma,-1.6792,29.2228,17.1,91,98,0.61,CD,1619037889
Torbay,47.6666,-52.7314,10.56,57,20,9.26,CA,1619037889
Hobart,-42.8794,147.3294,11.67,58,40,5.14,AU,1619037889
Tërny,50.9833,33.9833,4.79,89,75,3.07,UA,1619037890
Dunedin,-45.8742,170.5036,11.67,94,94,2.24,NZ,1619037890
Lebu,-37.6167,-73.65,12.91,79,43,7.72,CL,1619037890
Palmas Bellas,9.2319,-80.0867,30.0,70,96,3.58,PA,1619037890
Vanimo,-2.6741,141.3028,25.19,82,99,2.01,PG,1619037891
Ilulissat,69.2167,-51.1,-3.0,54,7,3.6,GL,1619037891
Arecibo,18.4724,-66.7157,28.89,69,50,4.02,PR,1619037891
Laguna,38.421,-121.4238,25.0,28,1,1.54,US,1619037891
Port Hardy,50.6996,-127.4199,11.0,76,75,5.66,CA,1619037892
Adrian,41.8975,-84.0372,5.0,56,75,5.66,US,1619037783
Punta Arenas,-53.15,-70.9167,8.0,66,0,4.12,CL,1619037733
Dingle,10.9995,122.6711,25.41,82,98,3.41,PH,1619037892
Carnarvon,-24.8667,113.6333,17.0,88,12,3.6,AU,1619037893
Avera,33.194,-82.5271,22.0,37,40,7.2,US,1619037893
Okha,53.5739,142.9478,-2.4,85,82,2.22,RU,1619037893
Butaritari,3.0707,172.7902,28.11,77,100,6.96,KI,1619037893
Bairiki Village,1.3292,172.9752,28.0,78,40,5.14,KI,1619037894
Khandyga,62.6667,135.6,-13.44,92,25,1.09,RU,1619037894
Port Macquarie,-31.4333,152.9167,8.89,82,3,0.89,AU,1619037894
Ponta do Sol,32.6667,-17.1,17.78,74,88,0.89,PT,1619037894
Mendi,-6.1761,143.6513,12.33,95,100,1.41,PG,1619037895
Waycross,31.2136,-82.354,28.0,23,1,6.17,US,1619037895
Waukesha,43.0333,-88.3001,3.33,80,90,2.09,US,1619037737
Kunya,12.2233,8.5325,31.0,42,0,7.2,NG,1619037895
Inírida,3.8653,-67.9239,30.49,65,53,0.8,CO,1619037895
Atasū,48.6814,71.6433,2.71,67,43,3.59,KZ,1619037675
Kangaatsiaq,68.3065,-53.4641,-4.44,77,46,5.97,GL,1619037896
Hilo,19.7297,-155.09,28.0,54,40,4.12,US,1619037896
Kaeo,-35.1,173.7833,14.44,96,100,0.9,NZ,1619037896
Shingū,33.7333,135.9833,12.13,50,6,3.15,JP,1619037896
Katsuura,35.1333,140.3,15.0,51,20,4.12,JP,1619037897
Mahibadhoo,3.7833,72.9667,27.99,71,6,3.26,MV,1619037897
Nikolskoye,59.7035,30.7861,2.22,93,75,1.0,RU,1619037897
Talnakh,69.4865,88.3972,-10.7,95,100,4.81,RU,1619037897
Taseyevo,57.2169,94.8978,-10.08,97,45,0.31,RU,1619037898
Narsaq,60.9167,-46.05,9.0,29,75,13.38,GL,1619037898
Kruisfontein,-34.0033,24.7314,16.67,94,99,0.45,ZA,1619037898
Cabo San Lucas,22.8909,-109.9124,28.89,28,40,4.63,MX,1619037898
Belmonte,-15.8631,-38.8828,26.0,78,75,3.09,BR,1619037899
Yar-Sale,66.8333,70.8333,0.58,90,100,5.03,RU,1619037899
Bonavista,48.6499,-53.1147,9.0,66,67,1.03,CA,1619037899
Caravelas,-17.7125,-39.2481,24.56,83,100,2.38,BR,1619037899
Zyryanka,65.75,150.85,-2.68,84,25,1.95,RU,1619037900
Kayerkan,69.3497,87.7602,-9.3,94,100,5.04,RU,1619037900
Yellowknife,62.456,-114.3525,-5.0,63,90,10.29,CA,1619037724
Ilebo,-4.3167,20.5833,21.48,97,99,1.0,CD,1619037900
Longyearbyen,78.2186,15.6401,-5.0,68,75,5.14,SJ,1619037900
Qaanaaq,77.484,-69.3632,-9.92,75,97,3.34,GL,1619037901
Bredasdorp,-34.5322,20.0403,17.0,88,98,3.09,ZA,1619037901
Khatanga,71.9667,102.5,-11.12,94,100,7.52,RU,1619037901
Taldan,53.6667,124.8,-0.02,90,80,2.13,RU,1619037902
Kapaa,22.0752,-159.319,26.11,83,20,2.57,US,1619037903
Atuona,-9.8,-139.0333,27.1,69,4,9.2,PF,1619037903
Grindavik,63.8424,-22.4338,6.0,87,90,4.63,IS,1619037903
Aksu,41.1231,80.2644,14.94,40,94,0.99,CN,1619037904
Coquimbo,-29.9533,-71.3436,18.0,77,0,6.69,CL,1619037904
Tiarei,-17.5333,-149.3333,30.0,62,40,5.14,PF,1619037904
Port Alfred,-33.5906,26.891,21.45,81,69,5.47,ZA,1619037904
Belaya Gora,68.5333,146.4167,-7.89,92,100,7.4,RU,1619037905
Clyde River,70.4692,-68.5914,-11.0,92,75,10.8,CA,1619037905
Formosa,-26.1775,-58.1781,30.0,51,0,6.17,AR,1619037906
Pacific Grove,36.6177,-121.9166,12.22,82,90,4.63,US,1619037906
Saint-Augustin,51.226,-58.6502,4.42,76,95,4.43,CA,1619037906
Chickasha,35.0526,-97.9364,14.0,30,1,2.06,US,1619037906
Saint Paul Harbor,57.79,-152.4072,5.0,87,90,7.72,US,1619037638
Guarapari,-20.6667,-40.4975,28.33,69,20,3.6,BR,1619037907
Bathsheba,13.2167,-59.5167,28.0,57,75,8.23,BB,1619037907
Pilar,-9.5972,-35.9567,27.0,78,40,4.63,BR,1619037748
Kavieng,-2.5744,150.7967,27.0,78,100,3.01,PG,1619037907
Tasiilaq,65.6145,-37.6368,-2.0,54,100,4.63,GL,1619037908
Bethel,41.3712,-73.414,10.0,76,90,3.6,US,1619037908
Thompson,55.7435,-97.8558,11.0,30,1,2.57,CA,1619037908
Tari,12.4086,4.4914,29.54,47,84,8.72,NG,1619037908
Nuuk,64.1835,-51.7216,1.0,64,1,6.69,GL,1619037909
Cidreira,-30.1811,-50.2056,21.46,67,99,7.93,BR,1619037909
Great Falls,47.5002,-111.3008,12.78,22,1,4.12,US,1619037742
Mount Hagen,-5.8581,144.2274,14.88,96,100,0.61,PG,1619037909
Port Elizabeth,-33.918,25.5701,19.0,94,75,3.6,ZA,1619037909
Petatlán,17.5167,-101.2667,29.0,65,1,5.14,MX,1619037910
Kilindoni,-7.9139,39.6668,27.01,78,73,6.77,TZ,1619037910
Sibolga,1.7427,98.7792,24.46,88,90,1.14,ID,1619037910
Barrow,71.2906,-156.7887,-7.0,86,1,3.09,US,1619037910
Tabas,33.5959,56.9244,25.63,21,9,0.82,IR,1619037911
Tiksi,71.6872,128.8694,-12.98,89,100,4.16,RU,1619037911
Carinhanha,-14.3047,-43.765,25.71,64,91,0.97,BR,1619037911
Ostrovnoy,68.0531,39.5131,2.67,71,100,2.95,RU,1619037911
Cayenne,4.9333,-52.3333,28.0,78,75,5.14,GF,1619037912
Codrington,-38.2667,141.9667,11.55,84,98,4.39,AU,1619037912
Distrikt Brokopondo,4.75,-55.1667,25.6,87,22,3.56,SR,1619037912
New Norfolk,-42.7826,147.0587,10.56,65,95,2.24,AU,1619037912
San Nicolás Guadalupe,19.6125,-100.0333,28.33,11,40,5.14,MX,1619037913
Yulara,-25.2406,130.9889,11.0,54,0,2.57,AU,1619037913
Nhulunbuy,-12.2333,136.7667,24.0,100,77,0.51,AU,1619037913
Simbahan,6.3032,120.5836,27.51,71,100,1.35,PH,1619037913
Prince Albert,53.2001,-105.7677,17.0,16,1,5.66,CA,1619037894
Iberia,29.9502,-91.7507,18.0,39,1,6.69,US,1619037651
Tura,25.5198,90.2201,23.59,66,100,1.72,IN,1619037914
Kula,38.5473,28.6498,9.02,73,3,2.25,TR,1619037618
Polson,47.6936,-114.1632,12.22,39,6,0.89,US,1619037914
Lady Lake,28.9175,-81.9229,29.44,34,20,3.09,US,1619037915
São João da Barra,-21.6403,-41.0511,26.0,57,0,7.2,BR,1619037915
Saint-Philippe,-21.3585,55.7679,25.0,83,0,5.66,RE,1619037915
Energetik,51.7445,58.7934,4.31,56,78,3.1,RU,1619037916
Alice Springs,-23.7,133.8833,9.0,57,0,2.57,AU,1619037727
Ribeira Grande,38.5167,-28.7,18.0,94,75,9.77,PT,1619037916
Whitianga,-36.8333,175.7,16.11,97,98,2.81,NZ,1619037916
Goderich,43.7501,-81.7165,0.0,74,42,6.17,CA,1619037916
Linxi,39.7,118.4333,11.99,50,100,2.57,CN,1619037860
Ürümqi,43.801,87.6005,1.0,93,90,3.0,CN,1619037917
Salalah,17.0151,54.0924,28.0,74,0,0.51,OM,1619037917
Ambulu,-8.345,113.6058,22.09,85,68,1.57,ID,1619037917
Lüderitz,-26.6481,15.1594,19.57,68,100,3.79,NA,1619037917
Mayor Pablo Lagerenza,-19.9309,-60.7718,30.1,46,100,2.7,PY,1619037918
Husavik,66.0449,-17.3389,7.0,57,20,5.66,IS,1619037919
Hirara,24.8,125.2833,23.01,89,100,11.15,JP,1619037919
Avarua,-21.2078,-159.775,27.0,69,40,6.17,CK,1619037919
Bengkulu,-3.8004,102.2655,24.06,90,66,1.53,ID,1619037920
Vylkove,45.4021,29.586,9.85,81,21,2.63,UA,1619037920
Zhangye,38.9342,100.4517,15.63,22,100,2.13,CN,1619037920
George Town,5.4112,100.3354,27.0,89,20,1.54,MY,1619037920
Freetown,8.484,-13.2299,26.89,82,98,3.76,SL,1619037921
Norman Wells,65.282,-126.8329,-3.0,68,75,7.2,CA,1619037737
Hofn,64.2539,-15.2082,5.82,63,100,1.24,IS,1619037921
Meadow Lake,34.8014,-106.5436,21.11,21,75,3.09,US,1619037905
Riverton,40.5219,-111.9391,12.78,50,1,6.69,US,1619037921
Honiara,-9.4333,159.95,27.09,81,49,1.21,SB,1619037922
Samborondón,-1.95,-79.7333,32.0,51,40,3.6,EC,1619037922
Sitka,57.0531,-135.33,9.0,66,20,2.57,US,1619037922
Caraquet,47.7941,-64.9386,3.0,93,100,0.51,CA,1619037922
Alcúdia,39.8532,3.1214,15.0,83,100,0.89,ES,1619037923
Puro,12.4841,123.3827,26.97,81,100,6.19,PH,1619037923
Iskateley,67.6803,53.1512,2.21,87,98,5.12,RU,1619037923
Chui,-33.6971,-53.4616,19.6,72,2,6.76,UY,1619037923
Kumluca,36.3703,30.2869,16.95,58,0,1.09,TR,1619037924
Kaitangata,-46.2817,169.8464,13.33,88,86,0.89,NZ,1619037924
Takoradze,4.8845,-1.7554,27.85,81,17,4.83,GH,1619037924
Concepción de la Vega,19.2221,-70.5296,33.0,40,20,6.69,DO,1619037924
Margate,51.3813,1.3862,6.67,70,19,1.79,GB,1619037925
Ahipara,-35.1667,173.1667,17.44,71,100,0.87,NZ,1619037668
Mizdah,31.4451,12.9801,19.73,30,4,7.1,LY,1619037925
Maningrida,-12.0667,134.2667,24.77,84,100,1.67,AU,1619037925
Assomada,15.1,-23.6833,22.0,68,0,7.72,CV,1619037926
Kemijärvi,66.7131,27.4306,1.61,94,100,0.7,FI,1619037926
Thaba-Tseka,-29.522,28.6084,8.37,64,68,1.68,LS,1619037926
Castro,-24.7911,-50.0119,16.05,79,93,2.53,BR,1619037926
Nortelândia,-14.4547,-56.8028,27.79,68,3,1.9,BR,1619037927
Souillac,-20.5167,57.5167,25.0,94,40,3.09,MU,1619037927
Leshan,29.5623,103.7639,19.0,81,100,0.32,CN,1619037799
Fortuna,40.5982,-124.1573,12.78,87,40,6.69,US,1619037927
Uvira,-3.4067,29.1458,22.33,85,99,1.49,CD,1619037927
Vila Franca do Campo,37.7167,-25.4333,18.0,94,75,8.23,PT,1619037928
Maniitsoq,65.4167,-52.9,1.05,80,8,4.51,GL,1619037928
Port Hedland,-20.3167,118.5667,19.0,63,6,2.57,AU,1619037928
Sioux City,42.5,-96.4003,7.0,36,90,6.17,US,1619037726
Moengo,5.6167,-54.4,24.81,91,79,2.41,SR,1619037928
Coyhaique,-45.5752,-72.0662,12.0,50,40,4.12,CL,1619037929
Mocuba,-16.8392,36.9856,20.57,99,67,1.98,MZ,1619037929
Guararapes,-21.2608,-50.6428,24.04,40,0,3.61,BR,1619037929
Bac Lieu,9.285,105.7244,27.37,81,99,3.74,VN,1619037929
Marystown,47.1666,-55.1483,5.66,75,34,8.29,CA,1619037930
Kalmunai,7.4167,81.8167,26.23,78,68,1.56,LK,1619037930
Kununurra,-15.7667,128.7333,19.0,88,8,1.54,AU,1619037930
Poum,-20.2333,164.0167,25.01,83,55,4.84,NC,1619037931
Hualmay,-11.0964,-77.6139,22.18,76,9,3.94,PE,1619037931
Toftlund,55.1886,9.0693,6.11,65,75,9.26,DK,1619037931
Natchez,31.5604,-91.4032,15.0,36,1,5.66,US,1619037931
Nha Trang,12.25,109.1833,25.0,94,75,1.03,VN,1619037932
Fare,-16.7,-151.0167,27.11,75,75,5.84,PF,1619037932
Lucapa,-8.4192,20.7447,19.24,94,100,1.07,AO,1619037932
Luba,3.4568,8.5547,27.0,89,20,3.09,GQ,1619037932
Chokurdakh,70.6333,147.9167,-8.57,94,100,4.97,RU,1619037933
Geraldton,-28.7667,114.6,19.0,52,100,4.63,AU,1619037933
Cupira,-8.6167,-35.95,22.86,90,99,1.52,BR,1619037933
Moose Factory,51.2585,-80.6094,-2.0,46,75,1.03,CA,1619037933
Airai,-8.9266,125.4092,13.96,94,54,0.91,TL,1619037934
Gunjur,13.2019,-16.7339,22.0,83,0,6.17,GM,1619037934
Pevek,69.7008,170.3133,-4.67,69,9,7.81,RU,1619037934
Acapulco de Juárez,16.8634,-99.8901,30.0,62,40,3.09,MX,1619037934
Tabuk,17.4189,121.4443,22.16,89,100,0.98,PH,1619037935
Taltal,-25.4,-70.4833,19.62,67,25,1.97,CL,1619037935
Richards Bay,-28.783,32.0377,20.35,91,91,2.29,ZA,1619037935
Dikson,73.5069,80.5464,-1.97,95,100,6.01,RU,1619037936
Stornoway,58.2093,-6.3865,6.0,70,94,2.06,GB,1619037936
Petropavlovsk-Kamchatskiy,53.0452,158.6483,3.0,100,75,3.0,RU,1619037936
Tual,-5.6667,132.75,28.35,70,16,1.8,ID,1619037936
Yaan,7.3833,8.5667,30.37,54,25,3.48,NG,1619037937
Barcelos,41.5388,-8.6151,13.0,94,75,3.6,PT,1619037738
Guerrero Negro,27.9769,-114.0611,19.18,55,40,7.25,MX,1619037937
Vila,42.0304,-8.1588,13.33,94,75,0.51,PT,1619037937
Adrar,20.5022,-10.0711,29.12,8,39,4.69,MR,1619037938
Laas,46.6166,10.7002,13.0,65,40,3.6,IT,1619037938
Uyuni,-20.4597,-66.825,13.4,9,0,5.36,BO,1619037938
Muli,2.9167,73.5667,27.86,70,5,2.92,MV,1619037938
Campestre,-21.7111,-46.2464,21.0,52,40,1.94,BR,1619037939
Atar,20.5169,-13.0499,29.29,10,9,3.43,MR,1619037939
Jutaí,-5.1833,-68.9,27.81,82,75,0.81,BR,1619037939
Hamilton,39.1834,-84.5333,7.22,53,100,0.89,US,1619037858
Faya,18.3851,42.4509,19.0,52,0,3.24,SA,1619037939
Provideniya,64.3833,-173.3,-2.0,64,0,3.0,RU,1619037940
Marsaxlokk,35.8419,14.5431,16.11,94,40,8.75,MT,1619037940
Manono,-7.3,27.4167,20.52,96,100,1.22,CD,1619037940
Alofi,-19.0595,-169.9187,28.0,78,40,4.12,NU,1619037941
Katherine,-14.4667,132.2667,23.0,78,34,2.57,AU,1619037941
Swan River,52.1058,-101.2676,16.0,14,15,7.2,CA,1619037941
Key Largo,25.0865,-80.4473,29.44,67,100,3.58,US,1619037811
Springbok,-29.6643,17.8865,17.71,46,0,0.37,ZA,1619037941
Saskylakh,71.9167,114.0833,-22.7,100,91,2.75,RU,1619037942
Marzuq,14.4,46.4667,21.47,38,5,2.45,YE,1619037942
Bubaque,11.2833,-15.8333,25.71,70,97,8.75,GW,1619037942
Caniço,32.6333,-16.85,19.0,82,75,1.03,PT,1619037942
Fonte Boa,-2.4959,-66.2662,28.53,77,83,1.38,BR,1619037943
Krasnosel'kup,65.7,82.4667,-11.53,93,63,4.66,RU,1619037943
Santa Isabel Rio Negro,-0.4139,-65.0192,27.56,88,84,0.38,BR,1619037943
Tiquisio,8.5597,-74.2669,31.42,61,76,1.96,CO,1619037944
Bambous Virieux,-20.3428,57.7575,25.56,94,40,3.09,MU,1619037944
Cervo,43.6702,-7.4101,12.78,88,100,3.48,ES,1619037944
Khovd,48.0056,91.6419,-1.04,73,100,2.09,MN,1619037944
Spring Hill,28.4769,-82.5255,27.0,36,1,5.14,US,1619037944
Oxford,51.7522,-1.256,7.78,61,0,4.63,GB,1619037945
Half Moon Bay,37.4636,-122.4286,18.89,87,75,2.06,US,1619037945
Umluj,25.0213,37.2685,28.23,50,73,2.62,SA,1619037945
Beloha,-25.1667,45.05,20.94,82,8,6.33,MG,1619037946
Aklavik,68.2191,-135.0107,-3.0,50,40,8.75,CA,1619037737
Mariehamn,60.0973,19.9348,5.0,87,100,2.06,AX,1619037946
Nemuro,43.3236,145.575,0.97,90,99,12.75,JP,1619037946
Chumikan,54.7183,135.315,-3.88,90,98,2.28,RU,1619037946
Sechura,-5.5569,-80.8222,27.13,57,16,6.56,PE,1619037947
Nanortalik,60.1432,-45.2371,3.49,76,100,2.53,GL,1619037947
Jalu,29.0331,21.5482,21.55,23,50,4.38,LY,1619037947
Yambio,4.5721,28.3955,20.73,93,100,2.2,SS,1619037947
Nishihara,26.1842,127.7558,22.0,88,75,6.69,JP,1619037948
Iqaluit,63.7506,-68.5145,-7.0,93,90,9.77,CA,1619037948
Usinsk,65.9939,57.5281,1.36,89,99,4.83,RU,1619037948
Dudinka,69.4058,86.1778,-7.89,95,100,7.23,RU,1619037948
Ouadda,8.0777,22.4007,22.25,76,100,1.14,CF,1619037949
Fort Abbas,29.1925,72.8536,25.96,32,0,3.74,PK,1619037949
Myitkyina,25.3833,97.4,21.55,45,12,1.06,MM,1619037949
Sampit,-2.5333,112.95,22.82,88,92,0.16,ID,1619037950
Zhuhai,22.2769,113.5678,23.0,88,20,4.63,CN,1619037950
Merauke,-8.4667,140.3333,24.7,92,98,2.4,ID,1619037950
Los Llanos de Aridane,28.6585,-17.9182,20.0,73,75,3.6,ES,1619037950
Kiryat Gat,31.61,34.7642,18.33,83,100,2.58,IL,1619037951
Ancud,-41.8697,-73.8203,13.33,58,75,1.54,CL,1619037951
Puerto Escondido,15.85,-97.0667,32.0,74,40,3.09,MX,1619037951
Olafsvik,64.8945,-23.7142,5.62,84,100,2.92,IS,1619037951
Elmira,42.0898,-76.8077,3.33,65,90,5.14,US,1619037952
Waddān,29.1614,16.139,21.52,19,39,7.93,LY,1619037952
Saldanha,-33.0117,17.9442,14.0,82,24,0.51,ZA,1619037952
Kamenka,51.3223,42.7678,6.11,94,100,3.53,RU,1619037953
Walvis Bay,-22.9575,14.5053,26.0,29,79,4.12,NA,1619037953
Normandin,48.8333,-72.5321,-1.0,54,100,4.12,CA,1619037953
Sola,-13.8833,167.55,28.07,76,62,5.73,VU,1619037953
Mossamedes,-15.1961,12.1522,26.77,79,32,2.13,AO,1619037954
Coahuayana Viejo,18.7333,-103.6833,32.0,17,1,4.12,MX,1619037919
Farafangana,-22.8167,47.8333,22.26,86,82,0.7,MG,1619037954
Vila Velha,-20.3297,-40.2925,28.33,69,20,3.6,BR,1619037954
Ocean City,39.2776,-74.5746,11.67,76,75,9.77,US,1619037700
Llano de Piedra,7.6667,-80.5667,29.92,61,96,4.2,PA,1619037954
Mesagne,40.5588,17.8083,12.78,93,0,2.06,IT,1619037955
Ambilobe,-13.2,49.05,24.11,73,100,2.55,MG,1619037955
São Gabriel da Cachoeira,-0.1303,-67.0892,27.17,88,64,0.21,BR,1619037955
Cedar City,37.6775,-113.0619,20.0,5,1,11.83,US,1619037955
Gubkinskiy,64.434,76.5026,-9.33,89,37,5.63,RU,1619037956
Road Town,18.4167,-64.6167,24.0,94,40,4.63,VG,1619037956
Sanguéya,10.7,-14.3667,25.82,70,99,3.08,GN,1619037956
Liwale,-9.7667,37.9333,19.46,97,39,1.85,TZ,1619037956
São Filipe,14.8961,-24.4956,23.03,70,92,5.79,CV,1619037957
Isangel,-19.55,169.2667,26.68,81,11,2.19,VU,1619037957
Kazygurt,41.7589,69.3864,7.0,87,0,1.37,KZ,1619037957
Puerto Ayora,-0.7393,-90.3518,28.0,74,40,4.12,EC,1619037876
Port-Gentil,-0.7193,8.7815,27.0,94,20,2.06,GA,1619037957
Juneau,58.3019,-134.4197,11.0,54,20,4.63,US,1619037905
Carutapera,-1.195,-46.02,24.24,93,100,1.6,BR,1619037958
Westport,41.1415,-73.3579,11.11,100,90,6.85,US,1619037751
Mahajanga,-15.7167,46.3167,26.0,73,40,4.12,MG,1619037958
Asău,46.4333,26.4,7.22,56,7,2.61,RO,1619037958
Homer,59.6425,-151.5483,8.33,93,40,4.63,US,1619037959
Nelson Bay,-32.7167,152.15,8.89,87,1,5.14,AU,1619037959
Arys,42.4252,68.795,6.0,75,40,4.0,KZ,1619037959
Adeje,28.1227,-16.726,20.0,73,20,5.66,ES,1619037959
Opuwo,-18.0607,13.84,21.89,30,52,4.24,NA,1619037960
Talcahuano,-36.7167,-73.1167,15.0,88,90,5.14,CL,1619037960
Kenai,60.5544,-151.2583,9.0,57,1,4.63,US,1619037961
Moa,20.6569,-74.9403,28.78,66,95,4.19,CU,1619037961
Voivodeni,46.7,24.6333,6.11,87,24,1.03,RO,1619037961
Brae,60.3964,-1.353,6.0,75,90,6.69,GB,1619037961
Englewood,39.6478,-104.9878,2.78,64,90,3.09,US,1619037898
Gobabis,-22.45,18.9667,16.02,36,62,4.86,NA,1619037673
Praia da Vitória,38.7333,-27.0667,19.0,88,75,12.22,PT,1619037962
Rome,43.2128,-75.4557,2.78,75,90,5.14,US,1619037962
Mumford,5.2618,-0.759,27.97,83,100,5.57,GH,1619037962
Vereshchagino,58.0789,54.6557,6.64,50,100,4.72,RU,1619037963
Hatillo,18.4863,-66.8254,28.89,69,75,5.66,PR,1619037963
Danshui,22.7984,114.4672,22.78,92,1,0.74,CN,1619037963
Svetlaya,46.5389,138.3297,3.33,70,1,0.74,RU,1619037963
Dali,25.7,100.1833,12.09,61,1,2.32,CN,1619037964
Porto Belo,-27.1578,-48.5531,22.22,88,75,2.06,BR,1619037964
Hobyo,5.3505,48.5268,29.02,68,98,5.88,SO,1619037964
Tot'ma,59.9747,42.7642,2.73,96,100,4.64,RU,1619037964
Kapit,2.0167,112.9333,22.25,99,81,0.16,MY,1619037965
Brigantine,39.4101,-74.3646,11.0,76,75,9.77,US,1619037965
Carauari,-4.8828,-66.8958,26.53,93,50,0.93,BR,1619037965
Conakry,9.538,-13.6773,28.0,69,75,2.06,GN,1619037966
Bandarbeyla,9.4942,50.8122,27.9,79,45,3.46,SO,1619037966
Matamba,-8.9833,33.9667,12.47,95,88,2.05,TZ,1619037966
San Patricio,28.017,-97.5169,22.78,43,90,6.17,US,1619037966
Mackenzie,55.2999,-123.1698,12.0,35,1,3.6,CA,1619037967
Meulaboh,4.1363,96.1285,24.89,88,87,1.39,ID,1619037967
Finspång,58.7058,15.7674,5.0,70,90,3.6,SE,1619037967
Agía Galíni,35.1,24.6833,13.89,76,13,2.18,GR,1619037967
Mount Gambier,-37.8333,140.7667,9.0,93,99,3.6,AU,1619037968
Hervey Bay,-25.2986,152.8535,17.78,95,13,2.24,AU,1619037968
Galle,6.0367,80.217,26.98,80,100,2.97,LK,1619037968
Bontang,0.1333,117.5,25.06,87,100,2.63,ID,1619037968
Río Gallegos,-51.6226,-69.2181,9.0,43,0,4.12,AR,1619037969
Mombetsu,44.3525,143.3525,0.56,81,95,8.05,JP,1619037969
Sinnamary,5.3833,-52.95,25.42,88,100,5.52,GF,1619037969
Laurel,39.0993,-76.8483,13.0,43,40,6.69,US,1619037898
Zliv,49.0661,14.3661,7.22,86,99,1.42,CZ,1619037970
Mabaruma,8.2,-59.7833,27.36,69,33,3.23,GY,1619037970
Ottumwa,41.02,-92.4113,8.33,37,100,3.13,US,1619037970
Epe,6.5841,3.9834,27.29,86,34,3.43,NG,1619037970
Ixtapa,20.7,-105.2,28.0,65,40,6.17,MX,1619037971
Camacha,33.0833,-16.3333,19.0,88,75,4.12,PT,1619037971
Disna,55.568,28.1971,6.04,84,28,3.33,BY,1619037971
Chateaubelair,13.2833,-61.25,28.0,65,20,7.72,VC,1619037971
Arrondissement de Tarbes,43.25,0.1667,14.0,62,0,1.54,FR,1619037972
Kutum,14.2,24.6667,27.09,8,57,5.55,SD,1619037972
Saint Anthony,45.0205,-93.218,6.11,41,90,3.6,US,1619037972
Banda Aceh,5.5577,95.3222,26.74,81,92,3.9,ID,1619037972
Athabasca,54.7169,-113.2854,20.0,19,98,3.09,CA,1619037973
Kazanskoye,55.6448,69.235,0.19,71,0,2.99,RU,1619037973
Beringovskiy,63.05,179.3167,-5.28,81,100,1.7,RU,1619037973
Lavrentiya,65.5833,-171.0,-0.94,62,95,0.82,RU,1619037973
Takanosu,40.2219,140.3694,5.51,80,0,0.83,JP,1619037974
Pukhrāyān,26.2333,79.85,24.28,46,73,2.61,IN,1619037974
Touros,-5.1989,-35.4608,29.0,70,20,6.69,BR,1619037974
Paulo Afonso,-9.4061,-38.2147,27.9,56,98,1.88,BR,1619037974
Caramay,10.1815,119.236,25.7,84,99,1.78,PH,1619037975
Menongue,-14.6585,17.691,16.75,60,9,2.56,AO,1619037975
Lithgow,-33.4833,150.15,7.22,85,0,1.86,AU,1619037975
Cockburn Town,21.4612,-71.1419,25.99,77,6,7.75,TC,1619037815
Mezen',65.8522,44.24,7.45,53,97,5.26,RU,1619037975
Ribeira Brava,32.65,-17.0667,17.78,89,86,0.89,PT,1619037976
Sioux Lookout,50.1001,-91.917,4.0,38,20,4.12,CA,1619037976
Murygino,58.7383,49.4582,2.21,96,100,5.83,RU,1619037977
Itarema,-2.9248,-39.9167,25.76,79,100,2.28,BR,1619037977
Turan,16.0678,108.2208,25.0,94,40,1.54,VN,1619037977
Ritchie,-29.038,24.6028,17.0,48,99,3.6,ZA,1619037977
Port Lincoln,-34.7333,135.8667,15.64,67,94,6.7,AU,1619037978
Deputatsky,69.3,139.9,-14.81,92,100,2.22,RU,1619037978
Nandigāma,16.7833,80.3,28.89,69,83,3.68,IN,1619037978
Fairbanks,64.8378,-147.7164,6.11,41,1,1.25,US,1619037978
Muroto-misakicho,33.2833,134.15,17.05,60,28,3.71,JP,1619037979
Tatvan,38.5067,42.2817,13.23,73,77,3.36,TR,1619037979
Tornio,65.8481,24.1466,0.0,80,0,0.51,FI,1619037979
Igarka,67.4667,86.5833,-13.29,95,96,3.88,RU,1619037979
Soe,-9.8607,124.284,16.79,93,20,1.75,ID,1619037980
Yerbogachën,61.2767,108.0108,-15.14,97,40,0.7,RU,1619037980
Lompoc,34.6391,-120.4579,13.0,71,27,4.12,US,1619037709
Mackay,-21.15,149.2,22.0,94,91,2.06,AU,1619037980
Mawlamyine,16.4914,97.6256,27.42,77,44,1.52,MM,1619037981
Gaoua,10.2992,-3.2508,29.65,49,69,3.36,BF,1619037981
Te Anau,-45.4167,167.7167,9.84,92,91,0.83,NZ,1619037981
Shimoda,34.6667,138.95,11.67,77,6,1.34,JP,1619037982
Eureka,40.8021,-124.1637,16.11,76,5,1.79,US,1619037982
Filingué,14.3521,3.3168,34.68,9,34,4.27,NE,1619037982
Chaykovskaya,58.1279,55.5378,4.0,45,0,3.0,RU,1619037982
Portland,45.5234,-122.6762,23.89,28,20,4.63,US,1619037785
Kefamenanu,-9.4467,124.4781,19.5,93,28,1.23,ID,1619037983
Limbang,4.75,115.0,25.0,94,75,1.03,MY,1619037983
Vestmannaeyjar,63.4427,-20.2734,6.84,78,100,4.82,IS,1619037983
Pozo Colorado,-23.4923,-58.7972,33.43,24,3,2.38,PY,1619037983
Mahrīz,31.5917,54.4318,25.0,15,0,3.09,IR,1619037984
Revda,56.801,59.9303,0.0,64,0,1.0,RU,1619037984
Constitución,-35.3333,-72.4167,14.07,95,99,5.91,CL,1619037984
Nome,64.5011,-165.4064,1.67,59,1,1.54,US,1619037984
Qasigiannguit,68.8193,-51.1922,-3.0,54,7,3.6,GL,1619037985
Antofagasta,-23.65,-70.4,18.0,72,20,6.69,CL,1619037732
Gamba,-2.65,10.0,26.34,87,97,1.83,GA,1619037985
Udachny,66.4167,112.4,-17.34,96,100,1.9,RU,1619037985
Le Port,-20.9373,55.2919,26.0,73,0,6.69,RE,1619037985
La Ronge,55.1001,-105.2842,16.0,16,7,3.6,CA,1619037986
Samarai,-10.6167,150.6667,27.64,78,86,2.07,PG,1619037986
Hūn,29.1268,15.9477,21.54,18,42,6.73,LY,1619037986
Srednekolymsk,67.45,153.6833,0.58,75,0,3.94,RU,1619037986
Departamento de Maldonado,-34.6667,-54.9167,23.0,68,40,4.12,UY,1619037987
Rawson,-43.3002,-65.1023,17.9,81,100,3.52,AR,1619037863
Zhigansk,66.7697,123.3711,-20.24,100,100,1.89,RU,1619037987
Banff,51.1762,-115.5698,16.0,23,42,4.12,CA,1619037987
Kamaishi,39.2667,141.8833,8.27,58,0,4.24,JP,1619037987
San Nicolas,18.1725,120.5953,25.4,84,100,5.48,PH,1619037909
Winnemucca,40.973,-117.7357,19.0,10,1,4.63,US,1619037988
Sabha,27.0377,14.4283,25.45,16,100,6.82,LY,1619037988
Kargalinskaya,43.7417,46.4792,12.59,72,100,2.73,RU,1619037988
Paranaíba,-19.6772,-51.1908,25.54,34,0,2.41,BR,1619037988
Capitão Poço,-1.7464,-47.0594,23.7,95,98,1.28,BR,1619037989
Haines Junction,60.7522,-137.5108,6.0,24,38,2.06,CA,1619037989
Serebryansk,49.6925,83.2892,-3.0,68,75,1.0,KZ,1619037989
Bartlesville,36.7473,-95.9808,15.0,31,1,2.06,US,1619037989
Benjamin Constant,-4.3831,-70.0311,28.0,83,40,3.09,BR,1619037990
Xiangxiang,27.7333,112.5333,17.84,96,100,1.29,CN,1619037990
Chāndpur,29.15,78.2667,21.36,54,100,4.84,IN,1619037990
Madīnat Sittah Uktūbar,29.8167,31.05,17.22,72,0,9.26,EG,1619037990
Flinders,-34.5833,150.8552,10.56,78,1,0.45,AU,1619037991
Pedasí,7.5333,-80.0333,28.25,70,79,3.38,PA,1619037991
Oranjemund,-28.55,16.4333,15.35,92,33,1.16,NA,1619037991
Santa Vitória do Palmar,-33.5189,-53.3681,19.64,71,4,6.68,BR,1619037991
Aykhal,66.0,111.5,-15.39,96,100,2.64,RU,1619037992
Northam,51.0333,-4.2167,10.0,76,12,1.34,GB,1619037992
Castaños,26.7833,-101.4167,20.0,68,40,2.57,MX,1619037992
Batagay-Alyta,67.8006,130.4114,-18.02,94,100,2.33,RU,1619037993
Bǝrdǝ,40.3744,47.1267,16.85,68,94,3.56,AZ,1619037876
Gilgit,35.9221,74.3087,11.59,65,97,0.66,PK,1619037993
Sakakah,29.9697,40.2064,31.0,12,0,5.14,SA,1619037746
Dukat,62.55,155.55,-4.92,92,100,3.0,RU,1619037993
Yunhe,34.0833,119.7167,14.81,94,100,3.98,CN,1619037994
Buraidah,26.326,43.975,26.0,22,0,1.03,SA,1619037985
Verkhnevilyuysk,63.4453,120.3167,-17.12,98,95,1.16,RU,1619037994
Ust'-Barguzin,53.45,108.9833,-8.72,89,81,1.01,RU,1619037994
Cartersville,34.1651,-84.7999,13.33,32,1,3.6,US,1619037995
Assiut,27.181,31.1837,26.0,34,0,7.72,EG,1619037995
Lorengau,-2.0226,147.2712,27.85,80,100,2.9,PG,1619037995
Nkhata Bay,-11.6066,34.2907,21.36,88,53,3.05,MW,1619037995
Daru,-9.0763,143.2092,24.49,84,93,2.28,PG,1619037996
Kropotkin,45.4375,40.5756,9.82,88,57,2.05,RU,1619037996
Selma,36.5708,-119.6121,22.78,40,40,1.54,US,1619037996
Carmelo,-33.9892,-58.2856,24.0,69,0,5.14,UY,1619037997
Tsabong,-26.0217,22.401,20.23,29,100,3.99,BW,1619037997
Vallejo,38.1041,-122.2566,21.67,63,1,8.23,US,1619037997
Kysyl-Syr,63.8986,122.7617,-17.51,98,98,1.36,RU,1619037997
Uvalde,29.3669,-99.767,21.11,30,90,2.06,US,1619037998
Saint-Pierre,-21.3393,55.4781,25.0,83,0,5.66,RE,1619037998
Celestún,20.8667,-90.4,28.42,68,25,7.11,MX,1619037998
Sinop Province,41.7711,34.8709,8.21,81,100,1.84,TR,1619037998
Bilibino,68.0546,166.4372,-6.63,73,4,1.31,RU,1619037999
Patea,-39.7583,174.4833,14.44,96,39,1.39,NZ,1619037999
Xifeng,42.7372,124.7222,12.47,33,100,1.47,CN,1619037999
Port Blair,11.6667,92.75,27.16,76,45,2.78,IN,1619037919
Mīrābād,30.4362,61.8383,25.41,25,0,4.71,AF,1619037999
Lagoa,39.05,-27.9833,17.3,92,92,8.97,PT,1619038000
Basi,26.8333,76.0333,24.0,41,40,2.57,IN,1619037985
Maragogi,-9.0122,-35.2225,26.05,79,79,3.56,BR,1619038000
Hay River,60.8156,-115.7999,-4.0,80,90,8.75,CA,1619037906
Kjøllefjord,70.9457,27.3465,3.0,81,75,7.2,NO,1619038000
Atambua,-9.1061,124.8925,21.26,88,50,1.68,ID,1619038001
Orodara,10.9492,-4.9342,32.0,58,20,2.06,BF,1619038001
Sakata,38.9167,139.855,9.44,80,9,4.21,JP,1619038001
Panjakent,39.4952,67.6093,9.0,76,5,6.17,TJ,1619038001
Kumul,42.8,93.45,17.93,27,99,3.51,CN,1619038002
Saint-Leu,-21.15,55.2833,25.0,83,0,5.66,RE,1619038002
Kashgar,39.4547,75.9797,15.0,7,75,10.0,CN,1619038002
Laureles,26.1092,-97.4941,20.56,72,90,9.26,US,1619038002
Tirumullaivāsal,11.2333,79.8333,27.59,83,11,3.38,IN,1619038003
Severnoye,56.3491,78.3619,-5.52,89,9,3.69,RU,1619038003
Yenotayevka,47.2456,47.0281,10.0,79,37,4.69,RU,1619038003
Zelenikovo,41.8867,21.5869,7.0,76,0,0.51,MK,1619038003
Morden,49.1919,-98.1014,15.0,18,71,6.43,CA,1619038004
Sirte,31.2089,16.5887,18.58,62,0,8.45,LY,1619038004
Mago,53.2514,140.1822,-1.19,80,96,1.63,RU,1619038004
Umeå,63.8284,20.2597,3.0,75,0,2.57,SE,1619038004
Bowen,-20.0167,148.2333,22.0,94,96,1.54,AU,1619038005
College,64.8569,-147.8028,6.11,38,1,1.24,US,1619037861
Saquena,-4.6667,-73.5167,25.91,86,94,1.12,PE,1619038005
Arrondissement de Cognac,45.5,-0.25,15.0,55,0,2.57,FR,1619038005
Dengzhou,37.8086,120.7508,11.07,60,100,4.83,CN,1619038005
Berlevåg,70.8578,29.0864,4.0,81,75,7.72,NO,1619038006
Şile,41.1754,29.6133,13.33,71,40,2.06,TR,1619038006
Zinder,13.8072,8.9881,31.18,6,43,4.0,NE,1619037901
Arvin,35.2091,-118.8284,21.11,55,0,3.13,US,1619038006
Seredka,58.1584,28.1858,5.0,100,0,2.0,RU,1619038006
Tymovskoye,50.8456,142.655,-1.04,93,86,0.3,RU,1619038007
Malakal,9.5334,31.6605,31.1,44,99,2.93,SS,1619038007
Mashhad,36.297,59.6062,17.0,51,0,4.12,IR,1619037860
Havre-St-Pierre,50.2334,-63.5986,7.0,53,1,6.17,CA,1619037847
Varhaug,58.6147,5.6457,4.44,84,18,2.24,NO,1619038007
Nuevo Progreso,23.1667,-97.95,27.22,71,55,4.92,MX,1619038008
Ozernovskiy,51.5,156.5167,2.17,87,58,1.73,RU,1619038008
Magnitogorsk,53.4186,59.0472,3.0,44,96,3.0,RU,1619038008
Amapá,1.0,-52.0,24.19,96,82,1.31,BR,1619038008
Sorong,-0.8833,131.25,26.08,85,95,1.04,ID,1619038009
Vardø,70.3705,31.1107,4.0,75,0,3.09,NO,1619038009
Mount Isa,-20.7333,139.5,22.0,18,70,6.17,AU,1619038009
Gagnoa,6.1293,-5.9437,25.35,84,22,1.98,CI,1619038009
Ntcheu,-14.8203,34.6359,15.74,92,100,2.34,MW,1619038010
Kahului,20.8947,-156.47,28.0,65,40,2.06,US,1619037740
Findlay,41.0442,-83.6499,6.0,49,75,6.17,US,1619038010
Soritor,-6.1392,-77.1039,24.36,87,66,1.41,PE,1619038010
Yangi Marg`ilon,40.4272,71.7189,10.0,62,75,3.09,UZ,1619038010
Bari,41.1177,16.8512,12.78,66,0,2.06,IT,1619037905
Huangyan,28.6478,121.2594,15.56,95,9,1.34,CN,1619038011
Padang,-0.9492,100.3543,24.43,88,98,1.51,ID,1619038011
Mwene-Ditu,-7.0,23.45,19.59,95,100,0.64,CD,1619038011
Saint-François,46.4154,3.9054,9.0,76,0,1.54,FR,1619038011
Umm Kaddadah,13.6017,26.6876,29.84,9,5,6.14,SD,1619038012
Ilovlya,49.3033,43.9796,8.0,87,0,3.0,RU,1619038012
Duku,11.2361,4.9073,27.04,58,100,4.64,NG,1619038012
Beyneu,45.3167,55.2,10.5,37,97,9.15,KZ,1619038013
Sokoni,-6.4333,39.55,27.0,83,40,7.2,TZ,1619038013
Bolitoc,15.7395,119.8769,27.04,82,100,4.41,PH,1619038013
Riyadh,24.6877,46.7219,31.0,18,0,2.06,SA,1619037945
Alamosa,37.4695,-105.87,14.0,18,20,9.91,US,1619038013
Sistranda,63.7256,8.834,2.0,87,75,5.66,NO,1619038014
Piribebuy,-25.4833,-57.05,30.0,48,0,4.12,PY,1619038014
Exeter,50.7236,-3.5275,8.89,87,80,4.28,GB,1619037944
Samaná,19.2056,-69.3369,31.0,66,40,5.14,DO,1619038014
Puerto del Rosario,28.5004,-13.8627,20.0,68,20,7.72,ES,1619038014
Roald,62.5833,6.1333,2.0,80,75,1.54,NO,1619038015
Sobolevo,54.4299,31.8996,4.16,88,19,3.59,RU,1619038015
Serenje,-13.2325,30.2352,13.79,95,69,2.56,ZM,1619038015
Price,39.5994,-110.8107,12.0,19,1,4.12,US,1619038015
Polunochnoye,60.8697,60.4153,3.72,78,53,2.05,RU,1619038016
Lázaro Cárdenas,17.9583,-102.2,29.82,37,0,5.01,MX,1619038016
